{
  "pharmacies": [
    {
      "id": "pharm1",
      "name": "A K Medical Hall",
      "logo": "image/Ph01.jpg",
      "rating": 4.8,
      "reviews": 125,
      "address": "50 DIT Plot Gendaria, Dhaka 1204",
      "hours": "8:00 AM - 10:00 PM",
      "contact": "+8801711000101",
      "status": "Open now",
      "latitude": 23.7104,
      "longitude": 90.4074
    },
    {
      "id": "pharm2",
      "name": "HealthPlus Pharmacy",
      "logo": "image/Ph02.jpg",
      "rating": 4.5,
      "reviews": 98,
      "address": "456 Oak Avenue, Midtown, Sylhet 10002",
      "hours": "24 Hours",
      "contact": "+8801711000102",
      "status": "Open now",
      "latitude": 24.8949,
      "longitude": 91.8687
    },
    {
      "id": "pharm3",
      "name": "WellLife Drugstore",
      "logo": "image/Ph03.jpg",
      "rating": 4.6,
      "reviews": 211,
      "address": "789 Pine Road, Uptown, Chittagong 10003",
      "hours": "9:00 AM - 9:00 PM",
      "contact": "+8801711000103",
      "status": "Closed",
      "latitude": 22.3569,
      "longitude": 91.7832
    },
    {
      "id": "pharm4",
      "name": "QuickMeds Pharmacy",
      "logo": "image/Ph04.png",
      "address": "321 Fast Relief Blvd, Remedy Center, RC 45678",
      "rating": 4.5,
      "reviews": 289,
      "hours": "8:00 AM - 8:00 PM",
      "contact": "+8801711000104",
      "status": "Open now",
      "latitude": 23.8103,
      "longitude": 90.4125
    },
    {
      "id": "pharm5",
      "name": "Wellness Pharmacy",
      "logo": "image/Ph05.png",
      "address": "555 Health Avenue, Vitality Square, Chittagong 56789",
      "rating": 4.7,
      "reviews": 412,
      "hours": "8:00 AM - 10:00 PM",
      "contact": "+8801711000105",
      "status": "Closed",
      "latitude": 22.3705,
      "longitude": 91.8252
    },
    {
      "id": "pharm6",
      "name": "MediCare Pharmacy",
      "logo": "image/Ph06.jpg",
      "address": "456 Wellness Road, Medical District, Dhaka 23456",
      "rating": 4.6,
      "reviews": 318,
      "hours": "24 Hours",
      "contact": "+8801711000106",
      "status": "Open now",
      "latitude": 23.7545,
      "longitude": 90.376
    },
    {
      "id": "pharm7",
      "name": "HoggWartz Pharmacy",
      "logo": "image/Ph07.png",
      "address": "321 Fast Relief Blvd, Remedy Center, Sylhet 45678",
      "rating": 4.5,
      "reviews": 289,
      "hours": "8:00 AM - 8:00 PM",
      "contact": "+8801711000107",
      "status": "Open now",
      "latitude": 24.8936,
      "longitude": 91.8705
    },
    {
      "id": "pharm8",
      "name": "Pharmacy 8",
      "logo": "image/Ph01.jpg",
      "rating": 4.9,
      "reviews": 139,
      "address": "140 Road, Area 2, Dhaka 1210",
      "hours": "10:00 AM - 11:00 PM",
      "contact": "+8801711357050",
      "status": "Open now",
      "latitude": 23.888203,
      "longitude": 90.432539
    },
    {
      "id": "pharm9",
      "name": "Pharmacy 9",
      "logo": "iimage/Ph01.jpg",
      "rating": 4.1,
      "reviews": 126,
      "address": "15 Road, Area 5, Dhaka 1224",
      "hours": "7:00 AM - 9:00 PM",
      "contact": "+8801711972138",
      "status": "Closed",
      "latitude": 23.681367,
      "longitude": 90.388985
    },
    {
      "id": "pharm10",
      "name": "Pharmacy 10",
      "logo": "image/Ph001.jpg",
      "rating": 4.0,
      "reviews": 141,
      "address": "108 Road, Area 44, Dhaka 1223",
      "hours": "10:00 AM - 11:00 PM",
      "contact": "+8801711166081",
      "status": "Closed",
      "latitude": 23.860362,
      "longitude": 90.368513
    },
    {
      "id": "pharm11",
      "name": "Pharmacy 11",
      "logo": "image/Ph001.jpg",
      "rating": 4.2,
      "reviews": 146,
      "address": "190 Road, Area 3, Dhaka 1216",
      "hours": "8:00 AM - 9:00 PM",
      "contact": "+8801711152165",
      "status": "Open now",
      "latitude": 23.810702,
      "longitude": 90.36859
    },
    {
      "id": "pharm12",
      "name": "Pharmacy 12",
      "logo": "image/Ph001.jpg",
      "rating": 4.1,
      "reviews": 44,
      "address": "101 Road, Area 40, Dhaka 1230",
      "hours": "8:00 AM - 10:00 PM",
      "contact": "+8801711422238",
      "status": "Closed",
      "latitude": 23.821763,
      "longitude": 90.337081
    },
    {
      "id": "pharm13",
      "name": "Pharmacy 13",
      "logo": "image/Ph007.jpg",
      "rating": 3.7,
      "reviews": 75,
      "address": "49 Road, Area 41, Dhaka 1214",
      "hours": "7:00 AM - 9:00 PM",
      "contact": "+8801711336394",
      "status": "Open now",
      "latitude": 23.846855,
      "longitude": 90.39065
    },
    {
      "id": "pharm14",
      "name": "Pharmacy 14",
      "logo": "image/Ph002.jpg",
      "rating": 3.7,
      "reviews": 48,
      "address": "163 Road, Area 33, Dhaka 1224",
      "hours": "10:00 AM - 9:00 PM",
      "contact": "+8801711347915",
      "status": "Open now",
      "latitude": 23.893054,
      "longitude": 90.425788
    },
    {
      "id": "pharm15",
      "name": "Pharmacy 15",
      "logo": "image/Ph02.jpg",
      "rating": 4.2,
      "reviews": 73,
      "address": "58 Road, Area 44, Dhaka 1200",
      "hours": "8:00 AM - 8:00 PM",
      "contact": "+8801711858922",
      "status": "Closed",
      "latitude": 23.736814,
      "longitude": 90.343439
    },
    {
      "id": "pharm16",
      "name": "Pharmacy 16",
      "logo": "image/Ph005.jpg",
      "rating": 4.2,
      "reviews": 88,
      "address": "167 Road, Area 31, Dhaka 1217",
      "hours": "9:00 AM - 9:00 PM",
      "contact": "+8801711740879",
      "status": "Closed",
      "latitude": 23.719372,
      "longitude": 90.449832
    },
    {
      "id": "pharm17",
      "name": "Pharmacy 17",
      "logo": "image/Ph004.jpg",
      "rating": 4.7,
      "reviews": 167,
      "address": "139 Road, Area 24, Dhaka 1208",
      "hours": "7:00 AM - 8:00 PM",
      "contact": "+8801711275884",
      "status": "Closed",
      "latitude": 23.735204,
      "longitude": 90.330019
    },
    {
      "id": "pharm18",
      "name": "Pharmacy 18",
      "logo": "image/Ph007.jpg",
      "rating": 3.9,
      "reviews": 88,
      "address": "118 Road, Area 8, Dhaka 1211",
      "hours": "7:00 AM - 10:00 PM",
      "contact": "+8801711959291",
      "status": "Closed",
      "latitude": 23.857924,
      "longitude": 90.410968
    },
    {
      "id": "pharm19",
      "name": "Pharmacy 19",
      "logo": "image/Ph001.jpg",
      "rating": 4.7,
      "reviews": 46,
      "address": "91 Road, Area 1, Dhaka 1226",
      "hours": "8:00 AM - 10:00 PM",
      "contact": "+8801711678431",
      "status": "Open now",
      "latitude": 23.711309,
      "longitude": 90.441546
    },
    {
      "id": "pharm20",
      "name": "Pharmacy 20",
      "logo": "image/Ph005.jpg",
      "rating": 3.5,
      "reviews": 89,
      "address": "19 Road, Area 45, Dhaka 1209",
      "hours": "9:00 AM - 11:00 PM",
      "contact": "+8801711986243",
      "status": "Open now",
      "latitude": 23.728766,
      "longitude": 90.416828
    },
    {
      "id": "pharm21",
      "name": "Pharmacy 21",
      "logo": "image/Ph006.jpg",
      "rating": 4.6,
      "reviews": 42,
      "address": "86 Road, Area 48, Dhaka 1202",
      "hours": "7:00 AM - 8:00 PM",
      "contact": "+8801711305366",
      "status": "Open now",
      "latitude": 23.771392,
      "longitude": 90.342125
    },
    {
      "id": "pharm22",
      "name": "Pharmacy 22",
      "logo": "image/Ph004.jpg",
      "rating": 4.4,
      "reviews": 172,
      "address": "172 Road, Area 2, Dhaka 1213",
      "hours": "9:00 AM - 11:00 PM",
      "contact": "+8801711397741",
      "status": "Open now",
      "latitude": 23.720316,
      "longitude": 90.344276
    },
    {
      "id": "pharm23",
      "name": "Pharmacy 23",
      "logo": "image/Ph023.jpg",
      "rating": 4.0,
      "reviews": 68,
      "address": "77 Road, Area 31, Dhaka 1226",
      "hours": "7:00 AM - 9:00 PM",
      "contact": "+8801711927837",
      "status": "Open now",
      "latitude": 23.830945,
      "longitude": 90.37129
    },
    {
      "id": "pharm24",
      "name": "Pharmacy 24",
      "logo": "image/Ph024.jpg",
      "rating": 4.0,
      "reviews": 78,
      "address": "88 Road, Area 35, Dhaka 1228",
      "hours": "9:00 AM - 9:00 PM",
      "contact": "+8801711558368",
      "status": "Open now",
      "latitude": 23.88056,
      "longitude": 90.366365
    },
    {
      "id": "pharm25",
      "name": "Pharmacy 25",
      "logo": "image/Ph025.jpg",
      "rating": 4.4,
      "reviews": 40,
      "address": "198 Road, Area 16, Dhaka 1221",
      "hours": "7:00 AM - 8:00 PM",
      "contact": "+8801711718903",
      "status": "Closed",
      "latitude": 23.826573,
      "longitude": 90.407431
    },
    {
      "id": "pharm26",
      "name": "Pharmacy 26",
      "logo": "image/Ph026.jpg",
      "rating": 3.6,
      "reviews": 159,
      "address": "184 Road, Area 48, Dhaka 1229",
      "hours": "9:00 AM - 10:00 PM",
      "contact": "+8801711529337",
      "status": "Closed",
      "latitude": 23.79722,
      "longitude": 90.352201
    },
    {
      "id": "pharm27",
      "name": "Pharmacy 27",
      "logo": "image/Ph027.jpg",
      "rating": 4.0,
      "reviews": 64,
      "address": "170 Road, Area 8, Dhaka 1221",
      "hours": "7:00 AM - 8:00 PM",
      "contact": "+8801711302659",
      "status": "Open now",
      "latitude": 23.790674,
      "longitude": 90.353834
    },
    {
      "id": "pharm28",
      "name": "Pharmacy 28",
      "logo": "image/Ph028.jpg",
      "rating": 3.9,
      "reviews": 162,
      "address": "121 Road, Area 47, Dhaka 1202",
      "hours": "7:00 AM - 11:00 PM",
      "contact": "+8801711807816",
      "status": "Closed",
      "latitude": 23.780792,
      "longitude": 90.357535
    },
    {
      "id": "pharm29",
      "name": "Pharmacy 29",
      "logo": "image/Ph029.jpg",
      "rating": 4.9,
      "reviews": 131,
      "address": "194 Road, Area 17, Dhaka 1226",
      "hours": "9:00 AM - 11:00 PM",
      "contact": "+8801711883381",
      "status": "Open now",
      "latitude": 23.704969,
      "longitude": 90.417029
    },
    {
      "id": "pharm30",
      "name": "Pharmacy 30",
      "logo": "image/Ph030.jpg",
      "rating": 3.8,
      "reviews": 155,
      "address": "41 Road, Area 27, Dhaka 1210",
      "hours": "9:00 AM - 8:00 PM",
      "contact": "+8801711670114",
      "status": "Closed",
      "latitude": 23.829532,
      "longitude": 90.447099
    },
    {
      "id": "pharm31",
      "name": "Pharmacy 31",
      "logo": "image/Ph031.jpg",
      "rating": 3.8,
      "reviews": 82,
      "address": "170 Road, Area 30, Dhaka 1225",
      "hours": "7:00 AM - 11:00 PM",
      "contact": "+8801711797327",
      "status": "Open now",
      "latitude": 23.774991,
      "longitude": 90.347039
    },
    {
      "id": "pharm32",
      "name": "Pharmacy 32",
      "logo": "image/Ph032.jpg",
      "rating": 3.6,
      "reviews": 90,
      "address": "25 Road, Area 40, Dhaka 1206",
      "hours": "8:00 AM - 9:00 PM",
      "contact": "+8801711923628",
      "status": "Closed",
      "latitude": 23.720528,
      "longitude": 90.442735
    },
    {
      "id": "pharm33",
      "name": "Pharmacy 33",
      "logo": "image/Ph033.jpg",
      "rating": 3.8,
      "reviews": 27,
      "address": "49 Road, Area 4, Dhaka 1220",
      "hours": "8:00 AM - 11:00 PM",
      "contact": "+8801711534355",
      "status": "Closed",
      "latitude": 23.685337,
      "longitude": 90.438834
    },
    {
      "id": "pharm34",
      "name": "Pharmacy 34",
      "logo": "image/Ph034.jpg",
      "rating": 4.4,
      "reviews": 163,
      "address": "81 Road, Area 13, Dhaka 1228",
      "hours": "10:00 AM - 10:00 PM",
      "contact": "+8801711502203",
      "status": "Open now",
      "latitude": 23.827996,
      "longitude": 90.369977
    },
    {
      "id": "pharm35",
      "name": "Pharmacy 35",
      "logo": "image/Ph035.jpg",
      "rating": 3.6,
      "reviews": 195,
      "address": "104 Road, Area 6, Dhaka 1211",
      "hours": "8:00 AM - 8:00 PM",
      "contact": "+8801711816627",
      "status": "Closed",
      "latitude": 23.850597,
      "longitude": 90.424314
    },
    {
      "id": "pharm36",
      "name": "Pharmacy 36",
      "logo": "image/Ph036.jpg",
      "rating": 4.7,
      "reviews": 55,
      "address": "40 Road, Area 40, Dhaka 1201",
      "hours": "9:00 AM - 9:00 PM",
      "contact": "+8801711210021",
      "status": "Open now",
      "latitude": 23.792608,
      "longitude": 90.332096
    },
    {
      "id": "pharm37",
      "name": "Pharmacy 37",
      "logo": "image/Ph037.jpg",
      "rating": 4.5,
      "reviews": 172,
      "address": "169 Road, Area 38, Dhaka 1218",
      "hours": "7:00 AM - 11:00 PM",
      "contact": "+8801711459009",
      "status": "Closed",
      "latitude": 23.840688,
      "longitude": 90.393523
    },
    {
      "id": "pharm38",
      "name": "Pharmacy 38",
      "logo": "image/Ph06.jpg",
      "rating": 4.4,
      "reviews": 38,
      "address": "15 Road, Area 32, Dhaka 1229",
      "hours": "8:00 AM - 10:00 PM",
      "contact": "+8801711211770",
      "status": "Open now",
      "latitude": 23.754281,
      "longitude": 90.353848
    },
    {
      "id": "pharm39",
      "name": "Pharmacy 39",
      "logo": "image/Ph039.jpg",
      "rating": 3.9,
      "reviews": 184,
      "address": "165 Road, Area 40, Dhaka 1217",
      "hours": "7:00 AM - 8:00 PM",
      "contact": "+8801711107259",
      "status": "Closed",
      "latitude": 23.810109,
      "longitude": 90.364029
    },
    {
      "id": "pharm40",
      "name": "Pharmacy 40",
      "logo": "image/Ph040.jpg",
      "rating": 4.7,
      "reviews": 69,
      "address": "143 Road, Area 45, Dhaka 1206",
      "hours": "8:00 AM - 10:00 PM",
      "contact": "+8801711293547",
      "status": "Open now",
      "latitude": 23.865685,
      "longitude": 90.39276
    },
    {
      "id": "pharm41",
      "name": "Pharmacy 41",
      "logo": "image/Ph041.jpg",
      "rating": 4.5,
      "reviews": 186,
      "address": "186 Road, Area 46, Dhaka 1221",
      "hours": "8:00 AM - 8:00 PM",
      "contact": "+8801711101018",
      "status": "Open now",
      "latitude": 23.776695,
      "longitude": 90.379388
    },
    {
      "id": "pharm42",
      "name": "Pharmacy 42",
      "logo": "image/Ph042.jpg",
      "rating": 4.5,
      "reviews": 65,
      "address": "53 Road, Area 49, Dhaka 1213",
      "hours": "9:00 AM - 11:00 PM",
      "contact": "+8801711333992",
      "status": "Open now",
      "latitude": 23.86191,
      "longitude": 90.391431
    },
    {
      "id": "pharm43",
      "name": "Pharmacy 43",
      "logo": "image/Ph043.jpg",
      "rating": 4.3,
      "reviews": 87,
      "address": "77 Road, Area 7, Dhaka 1201",
      "hours": "8:00 AM - 10:00 PM",
      "contact": "+8801711357045",
      "status": "Closed",
      "latitude": 23.782657,
      "longitude": 90.43715
    },
    {
      "id": "pharm44",
      "name": "Pharmacy 44",
      "logo": "image/Ph044.jpg",
      "rating": 3.6,
      "reviews": 26,
      "address": "9 Road, Area 3, Dhaka 1225",
      "hours": "9:00 AM - 10:00 PM",
      "contact": "+8801711898397",
      "status": "Open now",
      "latitude": 23.699401,
      "longitude": 90.347284
    },
    {
      "id": "pharm45",
      "name": "Pharmacy 45",
      "logo": "image/Ph045.jpg",
      "rating": 4.1,
      "reviews": 181,
      "address": "168 Road, Area 19, Dhaka 1202",
      "hours": "10:00 AM - 10:00 PM",
      "contact": "+8801711355873",
      "status": "Open now",
      "latitude": 23.693539,
      "longitude": 90.442509
    },
    {
      "id": "pharm46",
      "name": "Pharmacy 46",
      "logo": "image/Ph046.jpg",
      "rating": 3.8,
      "reviews": 75,
      "address": "125 Road, Area 17, Dhaka 1217",
      "hours": "9:00 AM - 10:00 PM",
      "contact": "+8801711572471",
      "status": "Closed",
      "latitude": 23.748052,
      "longitude": 90.44771
    },
    {
      "id": "pharm47",
      "name": "Pharmacy 47",
      "logo": "image/Ph047.jpg",
      "rating": 4.6,
      "reviews": 44,
      "address": "173 Road, Area 46, Dhaka 1206",
      "hours": "9:00 AM - 10:00 PM",
      "contact": "+8801711343062",
      "status": "Closed",
      "latitude": 23.682303,
      "longitude": 90.358984
    },
    {
      "id": "pharm48",
      "name": "Pharmacy 48",
      "logo": "image/Ph048.jpg",
      "rating": 4.7,
      "reviews": 140,
      "address": "58 Road, Area 43, Dhaka 1218",
      "hours": "7:00 AM - 11:00 PM",
      "contact": "+8801711915625",
      "status": "Open now",
      "latitude": 23.839529,
      "longitude": 90.384797
    },
    {
      "id": "pharm49",
      "name": "Pharmacy 49",
      "logo": "image/Ph049.jpg",
      "rating": 4.2,
      "reviews": 77,
      "address": "6 Road, Area 26, Dhaka 1215",
      "hours": "10:00 AM - 9:00 PM",
      "contact": "+8801711400807",
      "status": "Closed",
      "latitude": 23.786035,
      "longitude": 90.34179
    },
    {
      "id": "pharm50",
      "name": "Pharmacy 50",
      "logo": "image/Ph050.jpg",
      "rating": 3.6,
      "reviews": 131,
      "address": "196 Road, Area 31, Dhaka 1225",
      "hours": "10:00 AM - 8:00 PM",
      "contact": "+8801711648739",
      "status": "Closed",
      "latitude": 23.861921,
      "longitude": 90.39823
    },
    {
      "id": "pharm51",
      "name": "Pharmacy 51",
      "logo": "image/Ph051.jpg",
      "rating": 3.9,
      "reviews": 63,
      "address": "24 Road, Area 24, Dhaka 1213",
      "hours": "7:00 AM - 9:00 PM",
      "contact": "+8801711792206",
      "status": "Open now",
      "latitude": 23.848574,
      "longitude": 90.375428
    },
    {
      "id": "pharm52",
      "name": "Pharmacy 52",
      "logo": "image/Ph052.jpg",
      "rating": 3.6,
      "reviews": 39,
      "address": "173 Road, Area 35, Dhaka 1209",
      "hours": "7:00 AM - 10:00 PM",
      "contact": "+8801711931313",
      "status": "Open now",
      "latitude": 23.806129,
      "longitude": 90.357677
    },
    {
      "id": "pharm53",
      "name": "Pharmacy 53",
      "logo": "image/Ph053.jpg",
      "rating": 3.9,
      "reviews": 143,
      "address": "198 Road, Area 12, Dhaka 1200",
      "hours": "8:00 AM - 8:00 PM",
      "contact": "+8801711128577",
      "status": "Closed",
      "latitude": 23.821611,
      "longitude": 90.445905
    },
    {
      "id": "pharm54",
      "name": "Pharmacy 54",
      "logo": "image/Ph01.jpg",
      "rating": 4.4,
      "reviews": 127,
      "address": "38 Road, Area 31, Dhaka 1206",
      "hours": "8:00 AM - 10:00 PM",
      "contact": "+8801711618690",
      "status": "Closed",
      "latitude": 23.748485,
      "longitude": 90.381187
    },
    {
      "id": "pharm55",
      "name": "Pharmacy 55",
      "logo": "image/Ph055.jpg",
      "rating": 4.1,
      "reviews": 83,
      "address": "158 Road, Area 36, Dhaka 1219",
      "hours": "7:00 AM - 9:00 PM",
      "contact": "+8801711383484",
      "status": "Open now",
      "latitude": 23.794362,
      "longitude": 90.409333
    },
    {
      "id": "pharm56",
      "name": "Pharmacy 56",
      "logo": "image/Ph056.jpg",
      "rating": 3.7,
      "reviews": 200,
      "address": "5 Road, Area 33, Dhaka 1211",
      "hours": "9:00 AM - 10:00 PM",
      "contact": "+8801711348340",
      "status": "Open now",
      "latitude": 23.691337,
      "longitude": 90.340754
    },
    {
      "id": "pharm57",
      "name": "Pharmacy 57",
      "logo": "image/Ph057.jpg",
      "rating": 4.0,
      "reviews": 177,
      "address": "54 Road, Area 6, Dhaka 1212",
      "hours": "9:00 AM - 10:00 PM",
      "contact": "+8801711216977",
      "status": "Open now",
      "latitude": 23.780788,
      "longitude": 90.381699
    },
    {
      "id": "pharm58",
      "name": "Pharmacy 58",
      "logo": "image/Ph058.jpg",
      "rating": 3.8,
      "reviews": 119,
      "address": "63 Road, Area 29, Dhaka 1221",
      "hours": "8:00 AM - 9:00 PM",
      "contact": "+8801711908926",
      "status": "Open now",
      "latitude": 23.723223,
      "longitude": 90.412701
    },
    {
      "id": "pharm59",
      "name": "Pharmacy 59",
      "logo": "image/Ph059.jpg",
      "rating": 3.6,
      "reviews": 151,
      "address": "94 Road, Area 19, Dhaka 1225",
      "hours": "9:00 AM - 11:00 PM",
      "contact": "+8801711868227",
      "status": "Closed",
      "latitude": 23.830187,
      "longitude": 90.368933
    },
    {
      "id": "pharm60",
      "name": "Pharmacy 60",
      "logo": "image/Ph060.jpg",
      "rating": 4.1,
      "reviews": 200,
      "address": "27 Road, Area 39, Dhaka 1211",
      "hours": "9:00 AM - 11:00 PM",
      "contact": "+8801711443334",
      "status": "Open now",
      "latitude": 23.782955,
      "longitude": 90.443346
    },
    {
      "id": "pharm61",
      "name": "Pharmacy 61",
      "logo": "image/Ph07.png",
      "rating": 4.2,
      "reviews": 95,
      "address": "60 Road, Area 19, Dhaka 1202",
      "hours": "7:00 AM - 8:00 PM",
      "contact": "+8801711433876",
      "status": "Closed",
      "latitude": 23.763161,
      "longitude": 90.358273
    },
    {
      "id": "pharm62",
      "name": "Pharmacy 62",
      "logo": "image/Ph062.jpg",
      "rating": 4.1,
      "reviews": 140,
      "address": "194 Road, Area 22, Dhaka 1230",
      "hours": "7:00 AM - 11:00 PM",
      "contact": "+8801711868136",
      "status": "Closed",
      "latitude": 23.835273,
      "longitude": 90.385549
    },
    {
      "id": "pharm63",
      "name": "Pharmacy 63",
      "logo": "image/Ph063.jpg",
      "rating": 3.6,
      "reviews": 192,
      "address": "197 Road, Area 17, Dhaka 1214",
      "hours": "7:00 AM - 11:00 PM",
      "contact": "+8801711288585",
      "status": "Closed",
      "latitude": 23.756101,
      "longitude": 90.421418
    },
    {
      "id": "pharm64",
      "name": "Pharmacy 64",
      "logo": "image/Ph064.jpg",
      "rating": 3.8,
      "reviews": 42,
      "address": "37 Road, Area 42, Dhaka 1229",
      "hours": "8:00 AM - 9:00 PM",
      "contact": "+8801711139386",
      "status": "Closed",
      "latitude": 23.810802,
      "longitude": 90.438627
    },
    {
      "id": "pharm65",
      "name": "Pharmacy 65",
      "logo": "image/Ph06.jpg",
      "rating": 4.8,
      "reviews": 28,
      "address": "42 Road, Area 30, Dhaka 1229",
      "hours": "9:00 AM - 8:00 PM",
      "contact": "+8801711717285",
      "status": "Closed",
      "latitude": 23.760627,
      "longitude": 90.377937
    },
    {
      "id": "pharm66",
      "name": "Pharmacy 66",
      "logo": "image/Ph066.jpg",
      "rating": 4.9,
      "reviews": 140,
      "address": "155 Road, Area 48, Dhaka 1225",
      "hours": "7:00 AM - 8:00 PM",
      "contact": "+8801711788675",
      "status": "Closed",
      "latitude": 23.854558,
      "longitude": 90.387363
    },
    {
      "id": "pharm67",
      "name": "Pharmacy 67",
      "logo": "image/Ph067.jpg",
      "rating": 4.3,
      "reviews": 46,
      "address": "116 Road, Area 20, Dhaka 1202",
      "hours": "10:00 AM - 8:00 PM",
      "contact": "+8801711929464",
      "status": "Open now",
      "latitude": 23.741948,
      "longitude": 90.412847
    },
    {
      "id": "pharm68",
      "name": "Pharmacy 68",
      "logo": "image/Ph068.jpg",
      "rating": 4.9,
      "reviews": 148,
      "address": "164 Road, Area 26, Dhaka 1215",
      "hours": "9:00 AM - 11:00 PM",
      "contact": "+8801711194968",
      "status": "Open now",
      "latitude": 23.689592,
      "longitude": 90.42879
    },
    {
      "id": "pharm69",
      "name": "Pharmacy 69",
      "logo": "image/Ph069.jpg",
      "rating": 4.7,
      "reviews": 64,
      "address": "144 Road, Area 18, Dhaka 1223",
      "hours": "7:00 AM - 8:00 PM",
      "contact": "+8801711977876",
      "status": "Closed",
      "latitude": 23.821656,
      "longitude": 90.341721
    },
    {
      "id": "pharm70",
      "name": "Pharmacy 70",
      "logo": "image/Ph070.jpg",
      "rating": 3.9,
      "reviews": 192,
      "address": "170 Road, Area 15, Dhaka 1217",
      "hours": "8:00 AM - 10:00 PM",
      "contact": "+8801711166249",
      "status": "Open now",
      "latitude": 23.781726,
      "longitude": 90.390106
    },
    {
      "id": "pharm71",
      "name": "Pharmacy 71",
      "logo": "image/Ph071.jpg",
      "rating": 3.9,
      "reviews": 189,
      "address": "118 Road, Area 24, Dhaka 1228",
      "hours": "8:00 AM - 9:00 PM",
      "contact": "+8801711499737",
      "status": "Open now",
      "latitude": 23.877692,
      "longitude": 90.426443
    },
    {
      "id": "pharm72",
      "name": "Pharmacy 72",
      "logo": "image/Ph072.jpg",
      "rating": 4.4,
      "reviews": 91,
      "address": "151 Road, Area 20, Dhaka 1216",
      "hours": "7:00 AM - 11:00 PM",
      "contact": "+8801711696365",
      "status": "Open now",
      "latitude": 23.843434,
      "longitude": 90.393198
    },
    {
      "id": "pharm73",
      "name": "Pharmacy 73",
      "logo": "image/Ph073.jpg",
      "rating": 3.9,
      "reviews": 74,
      "address": "154 Road, Area 23, Dhaka 1211",
      "hours": "10:00 AM - 10:00 PM",
      "contact": "+8801711882434",
      "status": "Open now",
      "latitude": 23.8751,
      "longitude": 90.402566
    },
    {
      "id": "pharm74",
      "name": "Pharmacy 74",
      "logo": "image/Ph074.jpg",
      "rating": 4.2,
      "reviews": 72,
      "address": "7 Road, Area 8, Dhaka 1211",
      "hours": "8:00 AM - 9:00 PM",
      "contact": "+8801711787340",
      "status": "Closed",
      "latitude": 23.892672,
      "longitude": 90.370781
    },
    {
      "id": "pharm75",
      "name": "Pharmacy 75",
      "logo": "image/Ph075.jpg",
      "rating": 3.9,
      "reviews": 111,
      "address": "169 Road, Area 32, Dhaka 1202",
      "hours": "9:00 AM - 11:00 PM",
      "contact": "+8801711490314",
      "status": "Closed",
      "latitude": 23.745584,
      "longitude": 90.430369
    },
    {
      "id": "pharm76",
      "name": "Pharmacy 76",
      "logo": "image/Ph076.jpg",
      "rating": 4.4,
      "reviews": 176,
      "address": "120 Road, Area 46, Dhaka 1211",
      "hours": "10:00 AM - 10:00 PM",
      "contact": "+8801711709802",
      "status": "Closed",
      "latitude": 23.731766,
      "longitude": 90.340051
    },
    {
      "id": "pharm77",
      "name": "Pharmacy 77",
      "logo": "image/Ph077.jpg",
      "rating": 4.6,
      "reviews": 136,
      "address": "63 Road, Area 26, Dhaka 1212",
      "hours": "9:00 AM - 11:00 PM",
      "contact": "+8801711645644",
      "status": "Closed",
      "latitude": 23.721412,
      "longitude": 90.374905
    },
    {
      "id": "pharm78",
      "name": "Pharmacy 78",
      "logo": "image/Ph078.jpg",
      "rating": 3.8,
      "reviews": 172,
      "address": "41 Road, Area 31, Dhaka 1200",
      "hours": "9:00 AM - 11:00 PM",
      "contact": "+8801711322637",
      "status": "Closed",
      "latitude": 23.722026,
      "longitude": 90.332387
    },
    {
      "id": "pharm79",
      "name": "Pharmacy 79",
      "logo": "image/Ph079.jpg",
      "rating": 5.0,
      "reviews": 87,
      "address": "163 Road, Area 9, Dhaka 1222",
      "hours": "7:00 AM - 10:00 PM",
      "contact": "+8801711669598",
      "status": "Closed",
      "latitude": 23.893417,
      "longitude": 90.345649
    },
    {
      "id": "pharm80",
      "name": "Pharmacy 80",
      "logo": "image/Ph080.jpg",
      "rating": 4.5,
      "reviews": 109,
      "address": "63 Road, Area 17, Dhaka 1216",
      "hours": "9:00 AM - 8:00 PM",
      "contact": "+8801711931044",
      "status": "Open now",
      "latitude": 23.702121,
      "longitude": 90.332449
    },
    {
      "id": "pharm81",
      "name": "Pharmacy 81",
      "logo": "image/Ph081.jpg",
      "rating": 4.2,
      "reviews": 85,
      "address": "89 Road, Area 43, Dhaka 1211",
      "hours": "7:00 AM - 9:00 PM",
      "contact": "+8801711593879",
      "status": "Open now",
      "latitude": 23.715448,
      "longitude": 90.409387
    },
    {
      "id": "pharm82",
      "name": "Pharmacy 82",
      "logo": "image/Ph082.jpg",
      "rating": 4.7,
      "reviews": 35,
      "address": "115 Road, Area 43, Dhaka 1208",
      "hours": "8:00 AM - 8:00 PM",
      "contact": "+8801711730612",
      "status": "Closed",
      "latitude": 23.839349,
      "longitude": 90.337759
    },
    {
      "id": "pharm83",
      "name": "Pharmacy 83",
      "logo": "image/Ph083.jpg",
      "rating": 4.7,
      "reviews": 55,
      "address": "162 Road, Area 39, Dhaka 1213",
      "hours": "9:00 AM - 8:00 PM",
      "contact": "+8801711333100",
      "status": "Closed",
      "latitude": 23.898572,
      "longitude": 90.441455
    },
    {
      "id": "pharm84",
      "name": "Pharmacy 84",
      "logo": "image/Ph084.jpg",
      "rating": 4.0,
      "reviews": 58,
      "address": "150 Road, Area 5, Dhaka 1222",
      "hours": "7:00 AM - 10:00 PM",
      "contact": "+8801711898018",
      "status": "Open now",
      "latitude": 23.869349,
      "longitude": 90.369559
    },
    {
      "id": "pharm85",
      "name": "Pharmacy 85",
      "logo": "image/Ph085.jpg",
      "rating": 4.5,
      "reviews": 101,
      "address": "105 Road, Area 22, Dhaka 1229",
      "hours": "10:00 AM - 10:00 PM",
      "contact": "+8801711955665",
      "status": "Closed",
      "latitude": 23.710689,
      "longitude": 90.382628
    },
    {
      "id": "pharm86",
      "name": "Pharmacy 86",
      "logo": "image/Ph086.jpg",
      "rating": 3.9,
      "reviews": 124,
      "address": "88 Road, Area 18, Dhaka 1225",
      "hours": "9:00 AM - 8:00 PM",
      "contact": "+8801711490786",
      "status": "Closed",
      "latitude": 23.783405,
      "longitude": 90.336095
    },
    {
      "id": "pharm87",
      "name": "Pharmacy 87",
      "logo": "image/Ph087.jpg",
      "rating": 4.1,
      "reviews": 65,
      "address": "122 Road, Area 16, Dhaka 1217",
      "hours": "10:00 AM - 11:00 PM",
      "contact": "+8801711973543",
      "status": "Closed",
      "latitude": 23.699327,
      "longitude": 90.374444
    },
    {
      "id": "pharm88",
      "name": "Pharmacy 88",
      "logo": "image/Ph088.jpg",
      "rating": 4.8,
      "reviews": 190,
      "address": "7 Road, Area 49, Dhaka 1228",
      "hours": "9:00 AM - 9:00 PM",
      "contact": "+8801711227001",
      "status": "Open now",
      "latitude": 23.790756,
      "longitude": 90.445276
    },
    {
      "id": "pharm89",
      "name": "Pharmacy 89",
      "logo": "image/Ph089.jpg",
      "rating": 4.9,
      "reviews": 137,
      "address": "108 Road, Area 20, Dhaka 1206",
      "hours": "10:00 AM - 8:00 PM",
      "contact": "+8801711547274",
      "status": "Open now",
      "latitude": 23.835396,
      "longitude": 90.381878
    },
    {
      "id": "pharm90",
      "name": "Pharmacy 90",
      "logo": "image/Ph090.jpg",
      "rating": 4.7,
      "reviews": 94,
      "address": "97 Road, Area 30, Dhaka 1203",
      "hours": "7:00 AM - 11:00 PM",
      "contact": "+8801711560028",
      "status": "Open now",
      "latitude": 23.846226,
      "longitude": 90.428783
    },
    {
      "id": "pharm91",
      "name": "Pharmacy 91",
      "logo": "image/Ph091.jpg",
      "rating": 5.0,
      "reviews": 163,
      "address": "64 Road, Area 39, Dhaka 1208",
      "hours": "8:00 AM - 9:00 PM",
      "contact": "+8801711624835",
      "status": "Open now",
      "latitude": 23.856786,
      "longitude": 90.428763
    },
    {
      "id": "pharm92",
      "name": "Pharmacy 92",
      "logo": "image/Ph092.jpg",
      "rating": 3.7,
      "reviews": 124,
      "address": "153 Road, Area 23, Dhaka 1217",
      "hours": "7:00 AM - 11:00 PM",
      "contact": "+8801711248825",
      "status": "Closed",
      "latitude": 23.870681,
      "longitude": 90.38571
    },
    {
      "id": "pharm93",
      "name": "Pharmacy 93",
      "logo": "image/Ph093.jpg",
      "rating": 4.5,
      "reviews": 145,
      "address": "77 Road, Area 34, Dhaka 1203",
      "hours": "7:00 AM - 9:00 PM",
      "contact": "+8801711271015",
      "status": "Closed",
      "latitude": 23.813805,
      "longitude": 90.386364
    },
    {
      "id": "pharm94",
      "name": "Pharmacy 94",
      "logo": "image/Ph094.jpg",
      "rating": 3.7,
      "reviews": 195,
      "address": "131 Road, Area 31, Dhaka 1226",
      "hours": "7:00 AM - 11:00 PM",
      "contact": "+8801711167278",
      "status": "Closed",
      "latitude": 23.756831,
      "longitude": 90.427982
    },
    {
      "id": "pharm95",
      "name": "Pharmacy 95",
      "logo": "image/Ph095.jpg",
      "rating": 4.2,
      "reviews": 110,
      "address": "95 Road, Area 41, Dhaka 1229",
      "hours": "8:00 AM - 10:00 PM",
      "contact": "+8801711197623",
      "status": "Closed",
      "latitude": 23.729725,
      "longitude": 90.331199
    },
    {
      "id": "pharm96",
      "name": "Pharmacy 96",
      "logo": "image/Ph096.jpg",
      "rating": 5.0,
      "reviews": 110,
      "address": "81 Road, Area 9, Dhaka 1212",
      "hours": "10:00 AM - 8:00 PM",
      "contact": "+8801711481912",
      "status": "Open now",
      "latitude": 23.725877,
      "longitude": 90.403516
    },
    {
      "id": "pharm97",
      "name": "Pharmacy 97",
      "logo": "image/Ph097.jpg",
      "rating": 4.5,
      "reviews": 34,
      "address": "99 Road, Area 37, Dhaka 1227",
      "hours": "10:00 AM - 11:00 PM",
      "contact": "+8801711988664",
      "status": "Open now",
      "latitude": 23.855147,
      "longitude": 90.378648
    },
    {
      "id": "pharm98",
      "name": "Pharmacy 98",
      "logo": "image/Ph098.jpg",
      "rating": 4.6,
      "reviews": 86,
      "address": "36 Road, Area 46, Dhaka 1213",
      "hours": "10:00 AM - 9:00 PM",
      "contact": "+8801711963703",
      "status": "Open now",
      "latitude": 23.838137,
      "longitude": 90.368095
    },
    {
      "id": "pharm99",
      "name": "Pharmacy 99",
      "logo": "image/Ph099.jpg",
      "rating": 3.9,
      "reviews": 91,
      "address": "200 Road, Area 48, Dhaka 1220",
      "hours": "10:00 AM - 10:00 PM",
      "contact": "+8801711305386",
      "status": "Open now",
      "latitude": 23.821422,
      "longitude": 90.395225
    },
    {
      "id": "pharm100",
      "name": "Pharmacy 100",
      "logo": "image/Ph100.jpg",
      "rating": 3.7,
      "reviews": 74,
      "address": "113 Road, Area 35, Dhaka 1218",
      "hours": "10:00 AM - 11:00 PM",
      "contact": "+8801711393299",
      "status": "Open now",
      "latitude": 23.714392,
      "longitude": 90.347898
    },
    {
      "id": "pharm101",
      "name": "Pharmacy 101",
      "logo": "image/Ph101.jpg",
      "rating": 4.2,
      "reviews": 146,
      "address": "79 Road, Area 19, Dhaka 1228",
      "hours": "7:00 AM - 8:00 PM",
      "contact": "+8801711447089",
      "status": "Open now",
      "latitude": 23.786119,
      "longitude": 90.379239
    },
    {
      "id": "pharm102",
      "name": "Pharmacy 102",
      "logo": "image/Ph102.jpg",
      "rating": 4.6,
      "reviews": 77,
      "address": "148 Road, Area 35, Dhaka 1207",
      "hours": "10:00 AM - 10:00 PM",
      "contact": "+8801711360738",
      "status": "Open now",
      "latitude": 23.690863,
      "longitude": 90.39531
    },
    {
      "id": "pharm103",
      "name": "Pharmacy 103",
      "logo": "image/Ph103.jpg",
      "rating": 3.7,
      "reviews": 191,
      "address": "157 Road, Area 39, Dhaka 1224",
      "hours": "9:00 AM - 8:00 PM",
      "contact": "+8801711208717",
      "status": "Open now",
      "latitude": 23.830099,
      "longitude": 90.435438
    },
    {
      "id": "pharm104",
      "name": "Pharmacy 104",
      "logo": "image/Ph04.png",
      "rating": 4.0,
      "reviews": 31,
      "address": "46 Road, Area 33, Dhaka 1230",
      "hours": "7:00 AM - 10:00 PM",
      "contact": "+8801711717488",
      "status": "Closed",
      "latitude": 23.72325,
      "longitude": 90.358145
    },
    {
      "id": "pharm105",
      "name": "Pharmacy 105",
      "logo": "image/Ph105.jpg",
      "rating": 3.7,
      "reviews": 91,
      "address": "141 Road, Area 14, Dhaka 1212",
      "hours": "10:00 AM - 11:00 PM",
      "contact": "+8801711211688",
      "status": "Closed",
      "latitude": 23.804556,
      "longitude": 90.417797
    },
    {
      "id": "pharm106",
      "name": "Pharmacy 106",
      "logo": "image/Ph106.jpg",
      "rating": 4.6,
      "reviews": 26,
      "address": "85 Road, Area 34, Dhaka 1210",
      "hours": "10:00 AM - 8:00 PM",
      "contact": "+8801711646645",
      "status": "Closed",
      "latitude": 23.807475,
      "longitude": 90.398728
    },
    {
      "id": "pharm107",
      "name": "Pharmacy 107",
      "logo": "image/Ph107.jpg",
      "rating": 4.2,
      "reviews": 99,
      "address": "36 Road, Area 48, Dhaka 1225",
      "hours": "10:00 AM - 9:00 PM",
      "contact": "+8801711240017",
      "status": "Closed",
      "latitude": 23.821984,
      "longitude": 90.405106
    },
    {
      "id": "pharm108",
      "name": "Pharmacy 108",
      "logo": "image/Ph108.jpg",
      "rating": 3.5,
      "reviews": 147,
      "address": "153 Road, Area 27, Dhaka 1222",
      "hours": "10:00 AM - 8:00 PM",
      "contact": "+8801711105429",
      "status": "Closed",
      "latitude": 23.685011,
      "longitude": 90.363546
    },
    {
      "id": "pharm109",
      "name": "Pharmacy 109",
      "logo": "image/Ph109.jpg",
      "rating": 4.3,
      "reviews": 87,
      "address": "188 Road, Area 22, Dhaka 1215",
      "hours": "7:00 AM - 9:00 PM",
      "contact": "+8801711874199",
      "status": "Closed",
      "latitude": 23.783101,
      "longitude": 90.412815
    },
    {
      "id": "pharm110",
      "name": "Pharmacy 110",
      "logo": "image/Ph110.jpg",
      "rating": 4.1,
      "reviews": 180,
      "address": "35 Road, Area 13, Dhaka 1209",
      "hours": "8:00 AM - 8:00 PM",
      "contact": "+8801711137601",
      "status": "Closed",
      "latitude": 23.81996,
      "longitude": 90.359469
    },
    {
      "id": "pharm111",
      "name": "Pharmacy 111",
      "logo": "image/Ph111.jpg",
      "rating": 4.6,
      "reviews": 195,
      "address": "200 Road, Area 43, Dhaka 1208",
      "hours": "7:00 AM - 11:00 PM",
      "contact": "+8801711224899",
      "status": "Open now",
      "latitude": 23.775702,
      "longitude": 90.409958
    },
    {
      "id": "pharm112",
      "name": "Pharmacy 112",
      "logo": "image/Ph112.jpg",
      "rating": 4.3,
      "reviews": 154,
      "address": "107 Road, Area 30, Dhaka 1203",
      "hours": "9:00 AM - 9:00 PM",
      "contact": "+8801711473801",
      "status": "Closed",
      "latitude": 23.731987,
      "longitude": 90.410739
    },
    {
      "id": "pharm113",
      "name": "Pharmacy 113",
      "logo": "image/Ph113.jpg",
      "rating": 4.6,
      "reviews": 98,
      "address": "113 Road, Area 35, Dhaka 1215",
      "hours": "7:00 AM - 11:00 PM",
      "contact": "+8801711192988",
      "status": "Closed",
      "latitude": 23.814072,
      "longitude": 90.37413
    },
    {
      "id": "pharm114",
      "name": "Pharmacy 114",
      "logo": "image/Ph114.jpg",
      "rating": 4.3,
      "reviews": 164,
      "address": "55 Road, Area 27, Dhaka 1229",
      "hours": "10:00 AM - 10:00 PM",
      "contact": "+8801711844758",
      "status": "Closed",
      "latitude": 23.841288,
      "longitude": 90.421925
    },
    {
      "id": "pharm115",
      "name": "Pharmacy 115",
      "logo": "image/Ph115.jpg",
      "rating": 4.2,
      "reviews": 162,
      "address": "193 Road, Area 37, Dhaka 1202",
      "hours": "8:00 AM - 9:00 PM",
      "contact": "+8801711289232",
      "status": "Closed",
      "latitude": 23.787294,
      "longitude": 90.37587
    },
    {
      "id": "pharm116",
      "name": "Pharmacy 116",
      "logo": "image/Ph116.jpg",
      "rating": 3.8,
      "reviews": 113,
      "address": "31 Road, Area 49, Dhaka 1222",
      "hours": "10:00 AM - 8:00 PM",
      "contact": "+8801711319535",
      "status": "Closed",
      "latitude": 23.807232,
      "longitude": 90.43751
    },
    {
      "id": "pharm117",
      "name": "Pharmacy 117",
      "logo": "image/Ph117.jpg",
      "rating": 4.7,
      "reviews": 162,
      "address": "73 Road, Area 36, Dhaka 1219",
      "hours": "10:00 AM - 8:00 PM",
      "contact": "+8801711139242",
      "status": "Open now",
      "latitude": 23.689436,
      "longitude": 90.434394
    },
    {
      "id": "pharm118",
      "name": "Pharmacy 118",
      "logo": "image/Ph118.jpg",
      "rating": 4.0,
      "reviews": 79,
      "address": "113 Road, Area 35, Dhaka 1205",
      "hours": "10:00 AM - 10:00 PM",
      "contact": "+8801711310124",
      "status": "Open now",
      "latitude": 23.683016,
      "longitude": 90.36837
    },
    {
      "id": "pharm119",
      "name": "Pharmacy 119",
      "logo": "image/Ph119.jpg",
      "rating": 4.0,
      "reviews": 32,
      "address": "75 Road, Area 30, Dhaka 1225",
      "hours": "7:00 AM - 11:00 PM",
      "contact": "+8801711618622",
      "status": "Open now",
      "latitude": 23.763993,
      "longitude": 90.439624
    },
    {
      "id": "pharm120",
      "name": "Pharmacy 120",
      "logo": "image/Ph120.jpg",
      "rating": 4.4,
      "reviews": 141,
      "address": "38 Road, Area 9, Dhaka 1204",
      "hours": "8:00 AM - 9:00 PM",
      "contact": "+8801711818324",
      "status": "Closed",
      "latitude": 23.897531,
      "longitude": 90.337405
    },
    {
      "id": "pharm121",
      "name": "Pharmacy 121",
      "logo": "image/Ph121.jpg",
      "rating": 3.5,
      "reviews": 199,
      "address": "94 Road, Area 34, Dhaka 1211",
      "hours": "7:00 AM - 11:00 PM",
      "contact": "+8801711377294",
      "status": "Closed",
      "latitude": 23.864649,
      "longitude": 90.350104
    },
    {
      "id": "pharm122",
      "name": "Pharmacy 122",
      "logo": "image/Ph122.jpg",
      "rating": 4.8,
      "reviews": 154,
      "address": "103 Road, Area 41, Dhaka 1229",
      "hours": "7:00 AM - 11:00 PM",
      "contact": "+8801711640564",
      "status": "Closed",
      "latitude": 23.690601,
      "longitude": 90.433827
    },
    {
      "id": "pharm123",
      "name": "Pharmacy 123",
      "logo": "image/Ph123.jpg",
      "rating": 3.5,
      "reviews": 146,
      "address": "99 Road, Area 14, Dhaka 1201",
      "hours": "7:00 AM - 10:00 PM",
      "contact": "+8801711602458",
      "status": "Closed",
      "latitude": 23.746337,
      "longitude": 90.334911
    },
    {
      "id": "pharm124",
      "name": "Pharmacy 124",
      "logo": "image/Ph124.jpg",
      "rating": 4.4,
      "reviews": 143,
      "address": "190 Road, Area 22, Dhaka 1217",
      "hours": "10:00 AM - 11:00 PM",
      "contact": "+8801711697324",
      "status": "Closed",
      "latitude": 23.842558,
      "longitude": 90.346164
    },
    {
      "id": "pharm125",
      "name": "Pharmacy 125",
      "logo": "image/Ph125.jpg",
      "rating": 4.8,
      "reviews": 197,
      "address": "96 Road, Area 12, Dhaka 1222",
      "hours": "10:00 AM - 10:00 PM",
      "contact": "+8801711457689",
      "status": "Open now",
      "latitude": 23.790603,
      "longitude": 90.42153
    },
    {
      "id": "pharm126",
      "name": "Pharmacy 126",
      "logo": "image/Ph126.jpg",
      "rating": 4.7,
      "reviews": 164,
      "address": "136 Road, Area 14, Dhaka 1225",
      "hours": "7:00 AM - 11:00 PM",
      "contact": "+8801711839373",
      "status": "Closed",
      "latitude": 23.84016,
      "longitude": 90.379933
    },
    {
      "id": "pharm127",
      "name": "Pharmacy 127",
      "logo": "image/Ph127.jpg",
      "rating": 3.9,
      "reviews": 125,
      "address": "80 Road, Area 1, Dhaka 1222",
      "hours": "7:00 AM - 8:00 PM",
      "contact": "+8801711857856",
      "status": "Closed",
      "latitude": 23.784907,
      "longitude": 90.377272
    },
    {
      "id": "pharm128",
      "name": "Pharmacy 128",
      "logo": "image/Ph128.jpg",
      "rating": 3.6,
      "reviews": 90,
      "address": "31 Road, Area 50, Dhaka 1216",
      "hours": "10:00 AM - 9:00 PM",
      "contact": "+8801711950954",
      "status": "Open now",
      "latitude": 23.746593,
      "longitude": 90.40188
    },
    {
      "id": "pharm129",
      "name": "Pharmacy 129",
      "logo": "image/Ph129.jpg",
      "rating": 4.3,
      "reviews": 121,
      "address": "118 Road, Area 40, Dhaka 1225",
      "hours": "10:00 AM - 10:00 PM",
      "contact": "+8801711477520",
      "status": "Open now",
      "latitude": 23.810699,
      "longitude": 90.393031
    },
    {
      "id": "pharm130",
      "name": "Pharmacy 130",
      "logo": "image/Ph130.jpg",
      "rating": 4.9,
      "reviews": 88,
      "address": "145 Road, Area 31, Dhaka 1224",
      "hours": "10:00 AM - 8:00 PM",
      "contact": "+8801711154284",
      "status": "Closed",
      "latitude": 23.703889,
      "longitude": 90.39418
    },
    {
      "id": "pharm131",
      "name": "Pharmacy 131",
      "logo": "image/Ph131.jpg",
      "rating": 4.8,
      "reviews": 96,
      "address": "96 Road, Area 6, Dhaka 1214",
      "hours": "9:00 AM - 10:00 PM",
      "contact": "+8801711800879",
      "status": "Closed",
      "latitude": 23.85974,
      "longitude": 90.398703
    },
    {
      "id": "pharm132",
      "name": "Pharmacy 132",
      "logo": "image/Ph05.png",
      "rating": 3.6,
      "reviews": 177,
      "address": "36 Road, Area 17, Dhaka 1229",
      "hours": "10:00 AM - 9:00 PM",
      "contact": "+8801711257993",
      "status": "Open now",
      "latitude": 23.75462,
      "longitude": 90.374057
    },
    {
      "id": "pharm133",
      "name": "Pharmacy 133",
      "logo": "image/Ph133.jpg",
      "rating": 4.7,
      "reviews": 83,
      "address": "110 Road, Area 48, Dhaka 1229",
      "hours": "9:00 AM - 8:00 PM",
      "contact": "+8801711111283",
      "status": "Open now",
      "latitude": 23.886991,
      "longitude": 90.334831
    },
    {
      "id": "pharm134",
      "name": "Pharmacy 134",
      "logo": "image/Ph134.jpg",
      "rating": 3.9,
      "reviews": 161,
      "address": "52 Road, Area 12, Dhaka 1208",
      "hours": "8:00 AM - 9:00 PM",
      "contact": "+8801711727037",
      "status": "Open now",
      "latitude": 23.782082,
      "longitude": 90.394537
    },
    {
      "id": "pharm135",
      "name": "Pharmacy 135",
      "logo": "image/Ph135.jpg",
      "rating": 4.6,
      "reviews": 73,
      "address": "104 Road, Area 42, Dhaka 1223",
      "hours": "7:00 AM - 11:00 PM",
      "contact": "+8801711406063",
      "status": "Open now",
      "latitude": 23.696215,
      "longitude": 90.362243
    },
    {
      "id": "pharm136",
      "name": "Pharmacy 136",
      "logo": "image/Ph136.jpg",
      "rating": 4.9,
      "reviews": 78,
      "address": "36 Road, Area 49, Dhaka 1216",
      "hours": "10:00 AM - 8:00 PM",
      "contact": "+8801711317882",
      "status": "Closed",
      "latitude": 23.718985,
      "longitude": 90.347557
    },
    {
      "id": "pharm137",
      "name": "Pharmacy 137",
      "logo": "image/Ph137.jpg",
      "rating": 4.9,
      "reviews": 160,
      "address": "42 Road, Area 41, Dhaka 1209",
      "hours": "7:00 AM - 11:00 PM",
      "contact": "+8801711741967",
      "status": "Closed",
      "latitude": 23.747905,
      "longitude": 90.42404
    },
    {
      "id": "pharm138",
      "name": "Pharmacy 138",
      "logo": "image/Ph138.jpg",
      "rating": 5.0,
      "reviews": 187,
      "address": "139 Road, Area 9, Dhaka 1207",
      "hours": "7:00 AM - 9:00 PM",
      "contact": "+8801711794868",
      "status": "Closed",
      "latitude": 23.879685,
      "longitude": 90.402936
    },
    {
      "id": "pharm139",
      "name": "Pharmacy 139",
      "logo": "image/Ph139.jpg",
      "rating": 4.8,
      "reviews": 28,
      "address": "73 Road, Area 16, Dhaka 1227",
      "hours": "10:00 AM - 9:00 PM",
      "contact": "+8801711923232",
      "status": "Closed",
      "latitude": 23.772832,
      "longitude": 90.431238
    },
    {
      "id": "pharm140",
      "name": "Pharmacy 140",
      "logo": "image/Ph140.jpg",
      "rating": 4.9,
      "reviews": 165,
      "address": "83 Road, Area 11, Dhaka 1206",
      "hours": "10:00 AM - 8:00 PM",
      "contact": "+8801711272709",
      "status": "Closed",
      "latitude": 23.821447,
      "longitude": 90.449415
    },
    {
      "id": "pharm141",
      "name": "Pharmacy 141",
      "logo": "image/Ph141.jpg",
      "rating": 3.6,
      "reviews": 27,
      "address": "189 Road, Area 44, Dhaka 1227",
      "hours": "8:00 AM - 9:00 PM",
      "contact": "+8801711657558",
      "status": "Open now",
      "latitude": 23.744909,
      "longitude": 90.442583
    },
    {
      "id": "pharm142",
      "name": "Pharmacy 142",
      "logo": "image/Ph142.jpg",
      "rating": 3.6,
      "reviews": 27,
      "address": "50 Road, Area 32, Dhaka 1200",
      "hours": "9:00 AM - 9:00 PM",
      "contact": "+8801711480741",
      "status": "Open now",
      "latitude": 23.791793,
      "longitude": 90.414781
    },
    {
      "id": "pharm143",
      "name": "Pharmacy 143",
      "logo": "image/Ph05.png",
      "rating": 4.2,
      "reviews": 31,
      "address": "129 Road, Area 11, Dhaka 1218",
      "hours": "10:00 AM - 10:00 PM",
      "contact": "+8801711909129",
      "status": "Open now",
      "latitude": 23.74666,
      "longitude": 90.383108
    },
    {
      "id": "pharm144",
      "name": "Pharmacy 144",
      "logo": "image/Ph144.jpg",
      "rating": 4.8,
      "reviews": 170,
      "address": "149 Road, Area 6, Dhaka 1220",
      "hours": "7:00 AM - 11:00 PM",
      "contact": "+8801711393441",
      "status": "Open now",
      "latitude": 23.790238,
      "longitude": 90.428718
    },
    {
      "id": "pharm145",
      "name": "Pharmacy 145",
      "logo": "image/Ph145.jpg",
      "rating": 4.3,
      "reviews": 121,
      "address": "173 Road, Area 44, Dhaka 1217",
      "hours": "10:00 AM - 8:00 PM",
      "contact": "+8801711351490",
      "status": "Closed",
      "latitude": 23.700784,
      "longitude": 90.407185
    },
    {
      "id": "pharm146",
      "name": "Pharmacy 146",
      "logo": "image/Ph146.jpg",
      "rating": 3.8,
      "reviews": 114,
      "address": "112 Road, Area 15, Dhaka 1221",
      "hours": "10:00 AM - 10:00 PM",
      "contact": "+8801711197415",
      "status": "Open now",
      "latitude": 23.890458,
      "longitude": 90.376645
    },
    {
      "id": "pharm147",
      "name": "Pharmacy 147",
      "logo": "image/Ph147.jpg",
      "rating": 3.5,
      "reviews": 110,
      "address": "177 Road, Area 12, Dhaka 1200",
      "hours": "10:00 AM - 9:00 PM",
      "contact": "+8801711586945",
      "status": "Open now",
      "latitude": 23.811529,
      "longitude": 90.362028
    },
    {
      "id": "pharm148",
      "name": "Pharmacy 148",
      "logo": "image/Ph148.jpg",
      "rating": 4.3,
      "reviews": 82,
      "address": "21 Road, Area 4, Dhaka 1218",
      "hours": "8:00 AM - 11:00 PM",
      "contact": "+8801711941357",
      "status": "Open now",
      "latitude": 23.898061,
      "longitude": 90.36516
    },
    {
      "id": "pharm149",
      "name": "Pharmacy 149",
      "logo": "image/Ph149.jpg",
      "rating": 4.5,
      "reviews": 178,
      "address": "28 Road, Area 39, Dhaka 1227",
      "hours": "9:00 AM - 9:00 PM",
      "contact": "+8801711774311",
      "status": "Open now",
      "latitude": 23.775194,
      "longitude": 90.4272
    },
    {
      "id": "pharm150",
      "name": "Pharmacy 150",
      "logo": "image/Ph01.jpg",
      "rating": 3.7,
      "reviews": 181,
      "address": "105 Road, Area 34, Dhaka 1224",
      "hours": "10:00 AM - 10:00 PM",
      "contact": "+8801711760344",
      "status": "Closed",
      "latitude": 23.737744,
      "longitude": 90.362378
    }
  ]
}